{
  "medicalCenters": [
    {"id":"1",
      "name":"Hospital Universitari Arnau de Vilanova",
      "latitude" : "41.6270005",
      "longitude":"0.6126928",
      "address":"Avenida Alcalde Rovira Roure, 80,25198 Lleida",
      "phone" : "973 24 81 00"
    },
    {"id":"2",
      "name":"Hospital Santa Maria",
      "latitude" : "41.6235643",
      "longitude":"0.6150671",
      "address":"Alcalde Rovira Roure, 44,25198 Lleida",
      "phone" : "973 72 72 22"
    },
     {"id":"3",
      "name":"Hospital Cl√≠nic",
      "latitude" : "41.388619",
      "longitude":"2.1489113",
      "address":"Carrer tal 13",
      "phone" : "973252525"
    },
     {"id":"4",
      "name":"Hospital Carlos III",
      "latitude" : "40.4752657",
      "longitude":"-3.6987343",
      "address":"Calle de Sinesio Delgado, 10,28029 Madrid",
      "phone" : "973252525"
    },
     {"id":"5",
      "name":"Medical Center 5",
      "latitude" : "5",
      "longitude":"5",
      "address":"Carrer tal 15",
      "phone" : "973252525"
    }
  ]
}